{
    "requestVersion":5,
    "requestType":"itinerary",
    "options": {"title":"World Beer Tour", "earthRadius":"6371" },
    "places":[
        {"id": "start", "name":"New Belgium Brewing Company", "municipality":"Fort Collins", "latitude":"40.593", "longitude":"-105.069"}
        ,{"id": "davematt", "name":"Delirium Café", "municipality":"Brussels", "latitude":"50.8484", "longitude":"4.3539"}
        ,{"id": "tsciano", "name":"Unibrue", "municipality":"Quebec", "latitude": "45.4412", "longitude": "-73.2608"}
        ,{"id": "yaobingn", "name":"Summerskills", "municipality":"Plymouth", "latitude": "50.3680", "longitude": "-4.096812"}
        ,{"id": "jgelfand", "name":"Vagabund Brauerei", "municipality":"Berlin", "latitude": "52.5478", "longitude": "13.3492"}
        ,{"id": "msfales", "name":"Nikka Whiskey Distillery", "municipality":"Yoichi", "latitude": "43.1179", "longitude": "140.7980"}
        ,{"id": "gstamand", "name":"Warsteiner Brauerei", "municipality":"Warstein", "latitude": "51.2511", "longitude": "8.2115"}
        ,{"id": "ecouniha", "name":"Cervezeria Mahina", "municipality":"Mahina", "latitude": "-27.150171", "longitude": "-109.416158"}
        ,{"id": "leepat", "name":"Eternal City Brewing", "municipality":"Rome", "latitude": "41.5103", "longitude": "12.2407"}
        ,{"id": "sbhuju", "name":"Brimmer Brewing", "municipality":"Kawasaki", "latitude": "35.609804", "longitude": "139.599266"}
        ,{"id": "chengxi", "name":"Tsingtao Brewery", "municipality":"Qingdao", "latitude": "36.1151", "longitude": "120.3760"}
        ,{"id": "wqi", "name":"Eschweger Klosterbrauerei", "municipality":"Eschwege", "latitude": "51.1853726", "longitude": "10.0540137"}
        ,{"id": "jtperea", "name":"Brasserie de la Goutte d'Or", "municipality":"Paris", "latitude": "48.885134", "longitude": "2.352425"}
        ,{"id": "andreh", "name":"Kiuchi Brewery", "municipality":"Naka", "latitude": "36.468244", "longitude": "140.468280"}
        ,{"id": "pkeleher", "name":"Taedonggang", "municipality":"Pyongyang", "latitude": "39.322103", "longitude": "125.828698"}
        ,{"id": "kwelsh", "name":"Nordwand Bräu", "municipality":"Grindelwald", "latitude": "46.62170", "longitude": "8.041943"}
        ,{"id": "mdschulz", "name":"Urban Chestnut Hallertau Brewery", "municipality":"Wolnzach", "latitude":"48.6088", "longitude":"11.6177"}
        ,{"id": "danielr", "name":"Santorini Brewing Company", "municipality":"Mesa Gonia", "latitude":"36.3841", "longitude":"25.4644"}
        ,{"id": "mfvera", "name":"Trumer Pils", "municipality":"Obertrum", "latitude":"47.937162", "longitude":"13.078142"}
        ,{"id": "cgessama", "name":"The Water Buffalo", "municipality":"Hong Kong", "latitude":"22.244392", "longitude":"113.978698"}
        ,{"id": "dyplomon", "name":"Noctua Brewery Athens", "municipality":"Athens", "latitude":"37.98", "longitude":"23.71"}
        ,{"id": "jhfitzg", "name":"Galway Bay Brewery", "municipality":"Oranmore", "latitude":"53.280469", "longitude":"-8.925406"}
        ,{"id": "millardk", "name":"Bridger Brewing", "municipality":"Bozeman", "latitude":"45.6624", "longitude":"-111.0542"}
        ,{"id": "dsant8", "name":"Stone Brewing World Bistro & Gardens", "municipality":"Berlin", "latitude": "52.43806", "longitude": "13.36806"}
        ,{"id": "junyiliu", "name":"Thai Asia Pacific Brewery", "municipality":"Bangkok", "latitude":"14.160805", "longitude":"100.291948"}
        ,{"id": "kpashak", "name":"Great Leap Brewing", "municipality":"Beijing", "latitude":"39.94", "longitude":"116.44"}
        ,{"id": "jjbrad", "name":"Hofbrauhaus Munchen", "municipality":"Munich", "latitude":"48.1376", "longitude":"11.5799"}  
        ,{"id": "jwelch31", "name":"Vulkan Brauhaus", "municipality":"Mendig", "latitude":"50.377642", "longitude":"7.282445"}
        ,{"id": "iveshenry18", "name":"The Tap House", "municipality":"Dubai", "latitude":"25.11444444", "longitude":"55.14194444"}
        ,{"id": "rczwisler", "name":"Wicklow Wolf Brewing Company", "municipality":"Wicklow", "latitude":"53.205026", "longitude":"-6.106734"}
        ,{"id": "zackaryj", "name":"Maluti Mountain Brewery", "municipality":"Maseru", "latitude":"-29.2974788", "longitude":"27.4811119"}
        ,{"id": "bhoyt", "name":"APU Company", "municipality":"Mongolia", "latitude":"47.91667", "longitude":"106.91667"}
        ,{"id": "fbworm", "name": "Moa Brewing Company", "municipality": "New Zealand", "latitude": "-41.487401", "longitude": "173.881522"}
        ,{"id": "cwiegand", "name":"Sunshine Brewery", "municipality":"Gisborne", "latitude":"-38.668753", "longitude":"178.017283"}
        ,{"id": "wdomier", "name":"Cervisiam Brewery AS", "municipality":"Oslo", "latitude":"59.9486", "longitude":"10.9373"}
        ,{"id": "mgonzo10", "name":"Divo Pivo", "municipality":"Sofia", "latitude":"42.4130", "longitude":"23.1942"}
        ,{"id": "cjross", "name":"Segull 67", "municipality":"Siglufjörður", "latitude":"66.150700", "longitude":"-18.904102"}
        ,{"id": "bommarit", "name":"RVK Brewing Company", "municipality":"Reykjavic", "latitude":"64.1405", "longitude":"-21.9002"}
        ,{"id": "mnenriq", "name":"Beaten Track Brewery", "municipality":"south boulder western australia", "latitude":"-30.787636", "longitude":"121.494001"}
        ,{"id": "brandok", "name":"23rd Street Brewery", "municipality":"Lawrence", "latitude":"38.9430", "longitude":"-95.2810"}
        ,{"id": "jtopps", "name":"Smoked Beer Brewery", "municipality":"Bamberg", "latitude":"49.897185", "longitude":"10.892789"}
        ,{"id": "asoto98", "name":"Tecate Brewery", "municipality":"Tecate", "latitude":"32.57166438", "longitude":"-116.617830862"}
        ,{"id": "hendriet", "name":"Ser Bhum Brewery", "municipality":"Hungtsho, Bhutan", "latitude":"27.452", "longitude":"89.727"}
        ,{"id": "ncz", "name":"HooDoo Brewing Company", "municipality":"Fairbanks", "latitude":"64.835365", "longitude":"-147.776749"}
        ,{"id": "gaddvi","name":"Driftwood Brewery","municipality":"Victoria","latitude":"48.437093","longitude":"-123.374899"}
        ,{"id": "gusn", "name":"Alles Elbe", "municipality":"Hamburg", "latitude":"53.553162", "longitude":"9.962673"}
        ,{"id": "whiteaj", "name":"Two Beer Ltd.", "municipality":"Copenhagen", "latitude":"55.689", "longitude":"12.558"} 
        ,{"id": "suchiv", "name":"Mahou India Brewery", "municipality":"Rajasthan", "latitude":"28.14", "longitude":"76.90"}
        ,{"id": "wstnmssr", "name":"Carakale Brewing Company", "municipality":"Jordan", "latitude":"32.001", "longitude":"35.750"}
        ,{"id": "cakitten", "name":"Brauhaus Schönbuch", "municipality":"Stuttgart", "latitude":"48.780255", "longitude":"9.177589"}
        ,{"id": "simonard", "name":"The South African Breweries Limited", "municipality":"Johannesburg", "latitude":"-26.313", "longitude":"28.136002"}
        ,{"id": "fengwang", "name":"Master Gao Craft Brew Garden", "municipality":"NanJing", "latitude":"32.045096", "longitude":"118.795577"}
        ,{"id": "njodell", "name":"The White Hag Brewing Company", "municipality":"Ballymote", "latitude":"54.0891", "longitude":"-8.5223"}
        ,{"id": "andreibautin", "name":"Cascade Brewery", "municipality":"Tasmania", "latitude":"-42.8961", "longitude":"147.2920"}
        ,{"id": "johnsnm1", "name":"Stockholm Brewing Co", "municipality":"Stockholm", "latitude":"59.334591", "longitude":"18.063240"}
        ,{"id": "kyoussef", "name":"Garage beer Company", "municipality":"Barcelona", "latitude":"41.387073", "longitude":"2.160181"}
        ,{"id": "calebt", "name":"Carlsberg Brewery Malaysia Berhad", "municipality":"Shah Alam", "latitude":"3.071937", "longitude":"101.548372"}
        ,{"id": "kwimer", "name":"De Bekeerde Suster", "municipality":"Amsterdam", "latitude":"52.372032", "longitude":"4.899263"}
        ,{"id": "tprooney", "name":"12 Acres Brewing Company", "municipality":"Clonmore", "latitude":"52.8490", "longitude":"-6.9794"}
        ,{"id": "joshtburris", "name": "Three Boys Brewery", "municipality": "Woolston", "latitude": "-43.5492", "longitude": "172.6813"}
        ,{"id": "alzamily", "name":"Redchurch Brewery", "municipality":"London", "latitude":"51.5303", "longitude":"0.0569"}
        ,{"id": "arwatts", "name":"Guiones Brewing Company", "municipality":"Costa Rica", "latitude":"9.95", "longitude":"-85.67"}
        ,{"id": "epike919", "name":"Brasserie de Monaco", "municipality":"Monaco", "latitude":"43.73472", "longitude":"7.42222"}
        ,{"id": "jlham", "name":"Ballistic Beer Co", "municipality":"Salisbury", "latitude":"-27.54827", "longitude":"153.03161"}
        ,{"id": "jlopez63", "name":"Cerveceria Nacional Dominicana", "municipality":"Dominican Republic", "latitude":"18.5025", "longitude":"70.14722"}
        ,{"id": "jeremycl", "name":"Deathmatch in Hell", "municipality":"Tokyo", "latitude":"35.69416667", "longitude":"139.70472222"}
        ,{"id": "chaney", "name":"Halls Brewery", "municipality":"Paris", "latitude":"48.8615966", "longitude":"2.3470265"}
        ,{"id": "elavertu9", "name":"Durdin", "municipality":"Moskva", "latitude":"55.706225", "longitude":"37.510999"}
        ,{"id": "wscarbro", "name":"Guinness Brewery", "municipality":"Dublin", "latitude":"39.226630", "longitude":"-76.696597"}
        ,{"id": "shzhu", "name":"Hakuba Brewing Company", "municipality":"Nagano", "latitude":"48.8615966", "longitude":"137.857278"}
        ,{"id": "crcoleman", "name":"Schöfferhofer Weizenbier GmbH", "municipality":"Frankfurt am Main", "latitude":"50.0835778", "longitude":"8.6918373"} 
        ,{"id": "mpopesh", "name":"San Miguel Brewery Inc", "municipality":"Manila", "latitude":"14.844491853318944", "longitude":"120.86063861846925"}
        ,{"id": "zachklau", "name":"Moa Brewing Company", "municipality":"Blenheim Marlborough", "latitude":"-41.487", "longitude":"173.881"}
        ,{"id": "kshaffner", "name":"Strahov Monastery Brewery", "municipality":"Prague", "latitude":"50.087225", "longitude":"14.388297"}
        ,{"id": "wnr210", "name":"Belikin Brewery", "municipality":"Ladyville", "latitude":"17.543333333333333", "longitude":"-88.30083333333333"}
        ,{"id": "toddm", "name":"Birra Del Borgo", "municipality":"Italy", "latitude":"42.16417", "longitude":"13.27056"}
        ,{"id": "jaylizz", "name":"Windows Garage", "municipality":"Shanghai", "latitude":"31.231149", "longitude":"121.464049"}
        ,{"id": "willomcd", "name":"Cantillon", "municipality":"Brussels", "latitude":"50.8426", "longitude":"4.3373"}
        ,{"id": "psben113", "name":"Beavertown Brewery", "municipality":"London", "latitude":"51.589250", "longitude":"-0.056510"}
        ,{"id": "bgratias", "name":"Skol Beer Brewery", "municipality":"Rwanda", "latitude":"-1.940", "longitude":"30.000"}
        ,{"id": "waynemw", "name":"Black Isle Brewery", "municipality":"Black Isle", "latitude":"57.532240", "longitude":"-4.302224"}
        ,{"id": "mpaczosa75", "name":"Lion Brewery Ceylon PLC", "municipality":"Biyagama", "latitude":"6.941528", "longitude":"79.980689"}
        ,{"id": "cseewald", "name":"Star Brewing", "municipality":"Madagascar", "latitude":"-19.8634", "longitude":"47.0200"}
        ,{"id": "masforce", "name":"Barranco Brewing Company", "municipality":"Lima", "latitude":"-12.148466", "longitude":"-77.021005"}
        ,{"id": "cupit", "name": "Thai Asia Pacific Brewery", "municipality":"Nonthaburi", "latitude":"14.074280", "longitude":"100.311260"}
        ,{"id": "dziugas", "name":"ROCK 'N' ROLL PUB Šiauliai", "municipality":"Šiauliai", "latitude":"55.9300", "longitude":"23.3172"}
        ,{"id": "azmarque", "name":"Birra Cerqua", "municipality":"Bologna", "latitude":"44.491812", "longitude":"11.354642"}
        ,{"id": "maroe", "name": "Franklin's last stand brewing", "municipality":"Greenland Sea", "latitude":"78.3555", "longitude":"9.58"}
        ,{"id": "dcooke", "name":"Brasserie du Maroc", "municipality":"Casablanca", "latitude":"34.021990", "longitude":"-6.837620"}
        ,{"id": "javander", "name":"Cervecería COIRON", "municipality":"Rio Grande", "latitude":"-53.7965", "longitude":"-67.7819"}
    ]
   }